[
  {
    "nombre": "FARMACIAS SIMILARES BOSQUES (BLVD. PUEBLA 19)",
    "desc": "Farmacia con consulta médica. Blvd. Puebla 19, Bosques de San Sebastián.",
    "img": "/alliados/similares-bosques.png",
    "url": "https://www.google.com/maps/search/Farmacias+Similares+Blvd+Puebla+19+Bosques+San+Sebastian+Puebla",
    "telefono": "800 911 6666",
    "lat": "19.0948",
    "lon": "-98.1082"
  },
  {
    "nombre": "FARMACIAS SIMILARES (CALLE 1-B 76)",
    "desc": "Farmacia con consulta médica. Calle 1-B No. 76, Bosques de San Sebastián, CP 72310.",
    "img": "/alliados/similares2.png",
    "url": "https://www.google.com/maps/search/Farmacias+Similares+Calle+1B+76+Bosques+San+Sebastian+Puebla",
    "telefono": "(222) 218 3107",
    "lat": "19.0952",
    "lon": "-98.1090"
  },
  {
    "nombre": "FARMACIAS SIMILARES (BLVD. PUEBLA 18-A)",
    "desc": "Farmacia con consulta médica. Blvd. Puebla 18-A, Bosques de San Sebastián.",
    "img": "/alliados/similares3.png",
    "url": "https://www.google.com/maps/search/Farmacias+Similares+Blvd+Puebla+18+Bosques+San+Sebastian+Puebla",
    "telefono": "(222) 218 4647",
    "lat": "19.0945",
    "lon": "-98.1078"
  },
  {
    "nombre": "FARMACIAS SIMILARES AMALUCAN",
    "desc": "Farmacia con consulta. Av. Xonacatepec No. 115, Amalucan, CP 72310.",
    "img": "/alliados/similares-amalucan.png",
    "url": "https://www.google.com/maps/search/Farmacias+Similares+Av+Xonacatepec+115+Amalucan+Puebla",
    "telefono": "(222) 287 8146",
    "lat": "19.0965",
    "lon": "-98.1105"
  },
  {
    "nombre": "FARMACIA GUADALAJARA XONACATEPEC",
    "desc": "Farmacia con minisuper 24 hrs. Av. Xonacatepec 170, Bosques de San Sebastián.",
    "img": "/alliados/farmacia-guadalajara.png",
    "url": "https://www.google.com/maps/search/Farmacia+Guadalajara+Av+Xonacatepec+170+Bosques+San+Sebastian+Puebla",
    "telefono": "800 333 3000",
    "lat": "19.0932",
    "lon": "-98.1060"
  },
  {
    "nombre": "FARMACIA DR. AHORRO PLAZAS AMALUCAN",
    "desc": "Farmacia con consulta. Av. De Las Torres 1402-A, Plazas de Amalucan.",
    "img": "/alliados/dr-ahorro.png",
    "url": "https://www.google.com/maps/search/Farmacia+Dr+Ahorro+Av+Las+Torres+1402+Amalucan+Puebla",
    "telefono": "(222) 367 0308",
    "lat": "19.0978",
    "lon": "-98.1125"
  },
  {
    "nombre": "FARMACIA DULCE MARÍA",
    "desc": "Farmacia local. Calle 4-B No. 4, Bosques de San Sebastián. 8AM–11PM.",
    "img": "/alliados/farmacia-dulce.png",
    "url": "https://www.google.com/maps/search/Farmacia+Dulce+Maria+Calle+4B+4+Bosques+San+Sebastian+Puebla",
    "telefono": "",
    "lat": "19.0940",
    "lon": "-98.1095"
  },
  {
    "nombre": "FARMACIA REAL DE BOSQUES",
    "desc": "Blvd. Puebla 168, Infonavit Bosques de San Sebastián. 12-3PM / 7-10PM.",
    "img": "/alliados/farmacia-real.png",
    "url": "https://www.google.com/maps/search/Farmacia+Real+de+Bosques+Blvd+Puebla+168+Puebla",
    "telefono": "",
    "lat": "19.0958",
    "lon": "-98.1100"
  },
  {
    "nombre": "FARMACIA SAN ANTONI",
    "desc": "Farmacia local. Calle 8-B, Bosques de San Sebastián.",
    "img": "/alliados/farmacia-san-antoni.png",
    "url": "https://www.google.com/maps/search/Farmacia+San+Antoni+Calle+8B+Bosques+San+Sebastian+Puebla",
    "telefono": "",
    "lat": "19.0955",
    "lon": "-98.1088"
  },
  {
    "nombre": "FARMACIA EL BOSQUE",
    "desc": "Farmacia local. Calle 5-B No. 19, Bosques de San Sebastián.",
    "img": "/alliados/farmacia-bosque.png",
    "url": "https://www.google.com/maps/search/Farmacia+El+Bosque+Calle+5B+19+Bosques+San+Sebastian+Puebla",
    "telefono": "",
    "lat": "19.0950",
    "lon": "-98.1085"
  },
  {
    "nombre": "FARMACIA NUESTRA SRA. DE JUQUILA",
    "desc": "Farmacia local. Calle 6-C 43-2 Local B-C, Bosques de Amalucan 2ª Sección.",
    "img": "/alliados/farmacia-juquila.png",
    "url": "https://www.google.com/maps/search/Farmacia+Nuestra+Señora+Juquila+Bosques+Amalucan+Puebla",
    "telefono": "",
    "lat": "19.0960",
    "lon": "-98.1098"
  },
  {
    "nombre": "FARMACIA EL VALLE",
    "desc": "Farmacia local con medicamentos genéricos y de patente. Col. El Valle.",
    "img": "/alliados/farmacia-valle.png",
    "url": "https://www.google.com/maps/search/Farmacia+El+Valle+Puebla",
    "telefono": "",
    "lat": "19.1015",
    "lon": "-98.1165"
  },
  {
    "nombre": "MANDADITOS XONACATEPEC",
    "desc": "Servicio de paquetería y mandados locales en la colonia.",
    "img": "/alliados/1771832573512.png",
    "url": "https://www.facebook.com/share/182Fm2eKF5/",
    "telefono": "",
    "lat": "19.0872",
    "lon": "-98.1039"
  },
  {
    "nombre": "CENTRAL DE TAXIS PARQUE COLÓN",
    "desc": "Base de taxis 24/7. Calle Eucalipto, Col. Santa María Xonacatepec, CP 72229.",
    "img": "/alliados/taxi-parque-colon.png",
    "url": "https://www.google.com/maps/search/Central+Taxis+Parque+Colon+Eucalipto+Xonacatepec+Puebla",
    "telefono": "(222) 445 8508",
    "lat": "19.0880",
    "lon": "-98.1042"
  },
  {
    "nombre": "TAXISTAS PARQUE COLÓN (AV. CRISTÓBAL COLÓN)",
    "desc": "Central de taxis. Av. Cristóbal Colón No. 1, Santa María Xonacatepec.",
    "img": "/alliados/taxi-cristobal.png",
    "url": "https://www.google.com/maps/search/Taxistas+Parque+Colon+Cristobal+Colon+1+Xonacatepec+Puebla",
    "telefono": "",
    "lat": "19.0891",
    "lon": "-98.1055"
  },
  {
    "nombre": "BASE DE TAXIS VILLAS GUADALUPE",
    "desc": "Base de taxis local y foráneo. Col. Villas Guadalupe, Xonacatepec.",
    "img": "/alliados/taxi-villas.png",
    "url": "https://www.google.com/maps/search/Base+Taxis+Villas+Guadalupe+Xonacatepec+Puebla",
    "telefono": "(222) 845 1346",
    "lat": "19.0855",
    "lon": "-98.1015"
  },
  {
    "nombre": "TAXI BOSQUES (BLVD. MONTERREY 33)",
    "desc": "Servicio de taxi zona Bosques de San Sebastián. Blvd. Monterrey No. 33.",
    "img": "/alliados/taxi-bosques.png",
    "url": "https://www.google.com/maps/search/Taxi+Blvd+Monterrey+33+Bosques+San+Sebastian+Puebla",
    "telefono": "(222) 218 2000",
    "lat": "19.0910",
    "lon": "-98.1068"
  },
  {
    "nombre": "CENTRAL DE TAXIS BASE LA CRUZ",
    "desc": "Base de taxis 24/7. Santa María Xonacatepec, Puebla.",
    "img": "/alliados/taxi-la-cruz.png",
    "url": "https://www.facebook.com/p/Central-de-Taxis-Xonacatepec-100063965493377/",
    "telefono": "",
    "lat": "19.0868",
    "lon": "-98.1030"
  },
  {
    "nombre": "TAXI SERVICIO INDEPENDENCIA",
    "desc": "Servicio de taxi local. Calle Independencia No. 17, Santa María Xonacatepec.",
    "img": "/alliados/taxi-independencia.png",
    "url": "https://www.google.com/maps/search/Taxi+Calle+Independencia+17+Xonacatepec+Puebla",
    "telefono": "",
    "lat": "19.0862",
    "lon": "-98.1048"
  },
  {
    "nombre": "TAXIS AMALUCAN",
    "desc": "Base de taxis. Zona Amalucan, Puebla. Servicio local y foráneo.",
    "img": "/alliados/taxi-amalucan.png",
    "url": "https://www.google.com/maps/search/Taxis+Amalucan+Puebla",
    "telefono": "",
    "lat": "19.0988",
    "lon": "-98.1138"
  },
  {
    "nombre": "TAXIS RIVERA ANAYA",
    "desc": "Base de taxis. Av. Manuel Rivera Anaya, Puebla.",
    "img": "/alliados/taxi-rivera.png",
    "url": "https://www.google.com/maps/search/Taxis+Av+Manuel+Rivera+Anaya+Puebla",
    "telefono": "",
    "lat": "19.1002",
    "lon": "-98.1150"
  },
  {
    "nombre": "TAXIS EL VALLE",
    "desc": "Base de taxis. Col. El Valle, Puebla. Servicio 24 horas.",
    "img": "/alliados/taxi-valle.png",
    "url": "https://www.google.com/maps/search/Taxis+El+Valle+Puebla",
    "telefono": "",
    "lat": "19.1010",
    "lon": "-98.1162"
  },
  {
    "nombre": "CLÍNICA 55 AMALUCAN (IMSS)",
    "desc": "Unidad médica IMSS. Av. El Roble esq. Av. de las Torres, Amalucan.",
    "img": "/alliados/imss-55.png",
    "url": "https://www.google.com/maps/search/IMSS+Clinica+55+Amalucan+Av+Torres+Puebla",
    "telefono": "800 623 2323",
    "lat": "19.0985",
    "lon": "-98.1130"
  },
  {
    "nombre": "UNIDAD HOSPITALARIA AMALUCAN",
    "desc": "Av. Xonacatepec 1895, ref. Av. Manuel Rivera Anaya, Amalucan.",
    "img": "/alliados/hospital-amalucan.png",
    "url": "https://www.google.com/maps/search/Unidad+Hospitalaria+Amalucan+Av+Xonacatepec+1895+Puebla",
    "telefono": "(222) 211 5200",
    "lat": "19.0972",
    "lon": "-98.1115"
  },
  {
    "nombre": "CONSULTORIO MÉDICO FUNDACIÓN BEST",
    "desc": "Medicina general privada. Zona Amalucan / Rivera Anaya, Puebla.",
    "img": "/alliados/consultorio-best.png",
    "url": "https://www.google.com/maps/search/Consultorio+Medico+Fundacion+Best+Amalucan+Puebla",
    "telefono": "",
    "lat": "19.0968",
    "lon": "-98.1110"
  },
  {
    "nombre": "CONSULTORIO DENTAL AMALUCAN",
    "desc": "Consultorio dental privado. Zona Amalucan, Puebla.",
    "img": "/alliados/dental-amalucan.png",
    "url": "https://www.google.com/maps/search/Consultorio+Dental+Amalucan+Puebla",
    "telefono": "",
    "lat": "19.0970",
    "lon": "-98.1108"
  },
  {
    "nombre": "GINECÓLOGO ZONA AMALUCAN",
    "desc": "Especialista en salud femenina. Av. Xonacatepec, Amalucan.",
    "img": "/alliados/ginecologo.png",
    "url": "https://www.google.com/maps/search/Ginecologo+Av+Xonacatepec+Amalucan+Puebla",
    "telefono": "",
    "lat": "19.0975",
    "lon": "-98.1112"
  },
  {
    "nombre": "CONSULTORIO PEDIATRA AMALUCAN",
    "desc": "Pediatría privada. Zona Amalucan / Rivera Anaya.",
    "img": "/alliados/pediatra.png",
    "url": "https://www.google.com/maps/search/Consultorio+Pediatra+Amalucan+Rivera+Anaya+Puebla",
    "telefono": "",
    "lat": "19.0963",
    "lon": "-98.1102"
  },
  {
    "nombre": "LABORATORIO CLÍNICO BOSQUES",
    "desc": "Análisis clínicos. Zona Bosques de San Sebastián, Puebla.",
    "img": "/alliados/laboratorio.png",
    "url": "https://www.google.com/maps/search/Laboratorio+Clinico+Bosques+San+Sebastian+Puebla",
    "telefono": "",
    "lat": "19.0942",
    "lon": "-98.1075"
  },
  {
    "nombre": "CONSULTORIO MÉDICO EL VALLE",
    "desc": "Medicina general privada. Col. El Valle, Puebla.",
    "img": "/alliados/consultorio-valle.png",
    "url": "https://www.google.com/maps/search/Consultorio+Medico+El+Valle+Puebla",
    "telefono": "",
    "lat": "19.1012",
    "lon": "-98.1160"
  },
  {
    "nombre": "CONSULTORIO DENTAL XONACATEPEC",
    "desc": "Odontología general. Col. Santa María Xonacatepec.",
    "img": "/alliados/dental-xona.png",
    "url": "https://www.google.com/maps/search/Dentista+Xonacatepec+Puebla",
    "telefono": "",
    "lat": "19.0874",
    "lon": "-98.1040"
  },
  {
    "nombre": "MECÁNICA CENTER",
    "desc": "Taller mecánico. Afinaciones, motor, transmisiones. Tel/WhatsApp disponible.",
    "img": "/alliados/mecanica-center.png",
    "url": "https://www.mecanicacenter.com/",
    "telefono": "(222) 182 1613",
    "lat": "19.0935",
    "lon": "-98.1055"
  },
  {
    "nombre": "TALLER MECÁNICO AV. XONACATEPEC 1841",
    "desc": "Mecánica y eléctrica automotriz. Av. Xonacatepec No. 1841, Rivera Anaya.",
    "img": "/alliados/taller-xona.png",
    "url": "https://www.google.com/maps/search/Taller+Mecanico+Av+Xonacatepec+1841+Rivera+Anaya+Puebla",
    "telefono": "",
    "lat": "19.0982",
    "lon": "-98.1118"
  },
  {
    "nombre": "TALLER ELÉCTRICO AUTOMOTRIZ BOSQUES",
    "desc": "Electricidad automotriz y mecánica general. Bosques de San Sebastián.",
    "img": "/alliados/taller-electrico.png",
    "url": "https://www.google.com/maps/search/Taller+Electrico+Automotriz+Bosques+San+Sebastian+Puebla",
    "telefono": "",
    "lat": "19.0942",
    "lon": "-98.1070"
  },
  {
    "nombre": "HOJALATERÍA Y PINTURA BOSQUES",
    "desc": "Enderezado, hojalatería y pintura automotriz. Bosques de San Sebastián.",
    "img": "/alliados/hojalateria.png",
    "url": "https://www.google.com/maps/search/Hojalateria+Pintura+Bosques+San+Sebastian+Puebla",
    "telefono": "",
    "lat": "19.0938",
    "lon": "-98.1065"
  },
  {
    "nombre": "AUTOLAVADO BOSQUES",
    "desc": "Lavado y detallado de autos. Bosques de San Sebastián / Rivera Anaya.",
    "img": "/alliados/autolavado.png",
    "url": "https://www.google.com/maps/search/Autolavado+Bosques+San+Sebastian+Puebla",
    "telefono": "",
    "lat": "19.0928",
    "lon": "-98.1058"
  },
  {
    "nombre": "REFACCIONARIA BOSQUES",
    "desc": "Refacciones y accesorios automotrices. Bosques de San Sebastián.",
    "img": "/alliados/refaccionaria.png",
    "url": "https://www.google.com/maps/search/Refaccionaria+Bosques+San+Sebastian+Puebla",
    "telefono": "",
    "lat": "19.0930",
    "lon": "-98.1062"
  },
  {
    "nombre": "LLANTERA XONACATEPEC",
    "desc": "Venta y servicio de llantas. Alineación y balanceo. Xonacatepec.",
    "img": "/alliados/llantera.png",
    "url": "https://www.google.com/maps/search/Llantera+Xonacatepec+Puebla",
    "telefono": "",
    "lat": "19.0878",
    "lon": "-98.1028"
  },
  {
    "nombre": "TALLER MECÁNICO EL VALLE",
    "desc": "Mecánica general y mantenimiento. Col. El Valle, Puebla.",
    "img": "/alliados/taller-valle.png",
    "url": "https://www.google.com/maps/search/Taller+Mecanico+El+Valle+Puebla",
    "telefono": "",
    "lat": "19.1008",
    "lon": "-98.1158"
  },
  {
    "nombre": "TALLER DE MOTOS AMALUCAN",
    "desc": "Reparación y mantenimiento de motocicletas. Zona Amalucan.",
    "img": "/alliados/taller-motos.png",
    "url": "https://www.google.com/maps/search/Taller+Motocicletas+Amalucan+Puebla",
    "telefono": "",
    "lat": "19.0982",
    "lon": "-98.1120"
  },
  {
    "nombre": "BBVA BOSQUES DE SAN SEBASTIÁN",
    "desc": "Banco con cajeros 24 hrs. Blvd. Xonacatepec, Bosques de San Sebastián.",
    "img": "/alliados/bbva.png",
    "url": "https://www.google.com/maps/search/BBVA+Bosques+San+Sebastian+Blvd+Xonacatepec+Puebla",
    "telefono": "800 226 2663",
    "lat": "19.0920",
    "lon": "-98.1058"
  },
  {
    "nombre": "BANAMEX AMALUCAN",
    "desc": "Sucursal bancaria con cajeros 24 hrs. Zona Amalucan, Puebla.",
    "img": "/alliados/banamex.png",
    "url": "https://www.google.com/maps/search/Banamex+Amalucan+Puebla",
    "telefono": "800 226 2639",
    "lat": "19.0975",
    "lon": "-98.1120"
  },
  {
    "nombre": "BANCO AZTECA BOSQUES",
    "desc": "Servicios financieros y créditos. Zona Bosques / Xonacatepec.",
    "img": "/alliados/banco-azteca.png",
    "url": "https://www.google.com/maps/search/Banco+Azteca+Bosques+San+Sebastian+Puebla",
    "telefono": "800 900 9000",
    "lat": "19.0935",
    "lon": "-98.1072"
  },
  {
    "nombre": "CAJA POPULAR MEXICANA XONACATEPEC",
    "desc": "Ahorro y crédito cooperativo. Zona Xonacatepec / Amalucan.",
    "img": "/alliados/caja-popular.png",
    "url": "https://www.google.com/maps/search/Caja+Popular+Mexicana+Xonacatepec+Puebla",
    "telefono": "(222) 213 0000",
    "lat": "19.0885",
    "lon": "-98.1045"
  },
  {
    "nombre": "HSBC BLVD. XONACATEPEC",
    "desc": "Sucursal bancaria con cajeros. Blvd. Xonacatepec, Puebla.",
    "img": "/alliados/hsbc.png",
    "url": "https://www.google.com/maps/search/HSBC+Boulevard+Xonacatepec+Puebla",
    "telefono": "800 890 0000",
    "lat": "19.0912",
    "lon": "-98.1052"
  },
  {
    "nombre": "SANTANDER AMALUCAN",
    "desc": "Banco Santander. Zona Amalucan / Torres, Puebla.",
    "img": "/alliados/santander.png",
    "url": "https://www.google.com/maps/search/Santander+Amalucan+Puebla",
    "telefono": "800 501 0000",
    "lat": "19.0980",
    "lon": "-98.1128"
  },
  {
    "nombre": "SCOTIABANK XONACATEPEC",
    "desc": "Sucursal bancaria. Zona Xonacatepec, Puebla.",
    "img": "/alliados/scotiabank.png",
    "url": "https://www.google.com/maps/search/Scotiabank+Xonacatepec+Puebla",
    "telefono": "800 744 4000",
    "lat": "19.0900",
    "lon": "-98.1048"
  },
  {
    "nombre": "CHEDRAUI XONACATEPEC",
    "desc": "Supermercado. Blvd. Xonacatepec 174, Bosques de San Sebastián.",
    "img": "/alliados/chedraui.png",
    "url": "https://www.google.com/maps/search/Chedraui+Boulevard+Xonacatepec+174+Puebla",
    "telefono": "(222) 218 5000",
    "lat": "19.0910",
    "lon": "-98.1075"
  },
  {
    "nombre": "OXXO BLVD. XONACATEPEC",
    "desc": "Tienda conveniencia 24 hrs. Blvd. Xonacatepec, Puebla.",
    "img": "/alliados/oxxo-blvd.png",
    "url": "https://www.google.com/maps/search/OXXO+Boulevard+Xonacatepec+Puebla",
    "telefono": "800 696 9669",
    "lat": "19.0902",
    "lon": "-98.1035"
  },
  {
    "nombre": "OXXO AMALUCAN",
    "desc": "Tienda conveniencia 24 hrs. Zona Amalucan, Puebla.",
    "img": "/alliados/oxxo-amalucan.png",
    "url": "https://www.google.com/maps/search/OXXO+Amalucan+Puebla",
    "telefono": "800 696 9669",
    "lat": "19.0988",
    "lon": "-98.1135"
  },
  {
    "nombre": "OXXO RIVERA ANAYA",
    "desc": "Tienda conveniencia 24 hrs. Av. Manuel Rivera Anaya, Puebla.",
    "img": "/alliados/oxxo-rivera.png",
    "url": "https://www.google.com/maps/search/OXXO+Av+Manuel+Rivera+Anaya+Puebla",
    "telefono": "800 696 9669",
    "lat": "19.1000",
    "lon": "-98.1148"
  },
  {
    "nombre": "7-ELEVEN BOSQUES",
    "desc": "Tienda conveniencia. Zona Bosques de San Sebastián.",
    "img": "/alliados/seven.png",
    "url": "https://www.google.com/maps/search/7+Eleven+Bosques+San+Sebastian+Puebla",
    "telefono": "800 711 1711",
    "lat": "19.0945",
    "lon": "-98.1078"
  },
  {
    "nombre": "BODEGA AURRERA XONACATEPEC",
    "desc": "Autoservicio con abarrotes, ropa y más. Zona Xonacatepec.",
    "img": "/alliados/bodega-aurrera.png",
    "url": "https://www.google.com/maps/search/Bodega+Aurrera+Xonacatepec+Puebla",
    "telefono": "(222) 211 0000",
    "lat": "19.0895",
    "lon": "-98.1065"
  },
  {
    "nombre": "WALMART BOSQUES",
    "desc": "Tienda de autoservicio. Blvd. Xonacatepec, Bosques de San Sebastián.",
    "img": "/alliados/walmart.png",
    "url": "https://www.google.com/maps/search/Walmart+Bosques+San+Sebastian+Puebla",
    "telefono": "(222) 217 0000",
    "lat": "19.0925",
    "lon": "-98.1060"
  },
  {
    "nombre": "ABARROTES DON CHELO",
    "desc": "Tienda de abarrotes. Col. Santa María Xonacatepec.",
    "img": "/alliados/abarrotes.png",
    "url": "https://www.google.com/maps/search/Abarrotes+Xonacatepec+Puebla",
    "telefono": "",
    "lat": "19.0845",
    "lon": "-98.1048"
  },
  {
    "nombre": "MISCELÁNEA EL VALLE",
    "desc": "Abarrotes y bebidas. Col. El Valle, Puebla.",
    "img": "/alliados/miscelanea-valle.png",
    "url": "https://www.google.com/maps/search/Miscelanea+El+Valle+Puebla",
    "telefono": "",
    "lat": "19.1010",
    "lon": "-98.1160"
  },
  {
    "nombre": "TIANGUIS XONACATEPEC",
    "desc": "Mercado semanal. Productos frescos, ropa y más. Santa María Xonacatepec.",
    "img": "/alliados/tianguis.png",
    "url": "https://www.google.com/maps/search/Tianguis+Xonacatepec+Puebla",
    "telefono": "",
    "lat": "19.0875",
    "lon": "-98.1042"
  },
  {
    "nombre": "PAPELERÍA Y COPIAS BOSQUES",
    "desc": "Impresiones, copias y útiles escolares. Bosques de San Sebastián.",
    "img": "/alliados/papeleria-bosques.png",
    "url": "https://www.google.com/maps/search/Papeleria+Copias+Bosques+San+Sebastian+Puebla",
    "telefono": "",
    "lat": "19.0940",
    "lon": "-98.1075"
  },
  {
    "nombre": "PAPELERÍA XONA",
    "desc": "Útiles escolares e impresiones. Col. Santa María Xonacatepec.",
    "img": "/alliados/papeleria-xona.png",
    "url": "https://www.google.com/maps/search/Papeleria+Xonacatepec+Puebla",
    "telefono": "",
    "lat": "19.0868",
    "lon": "-98.1022"
  },
  {
    "nombre": "COPIAS E IMPRESIONES AMALUCAN",
    "desc": "Impresión digital, copias y encuadernado. Zona Amalucan.",
    "img": "/alliados/copias-amalucan.png",
    "url": "https://www.google.com/maps/search/Copias+Impresiones+Amalucan+Puebla",
    "telefono": "",
    "lat": "19.0990",
    "lon": "-98.1140"
  },
  {
    "nombre": "PAPELERÍA RIVERA ANAYA",
    "desc": "Papelería completa. Av. Manuel Rivera Anaya, Puebla.",
    "img": "/alliados/papeleria-rivera.png",
    "url": "https://www.google.com/maps/search/Papeleria+Av+Manuel+Rivera+Anaya+Puebla",
    "telefono": "",
    "lat": "19.1005",
    "lon": "-98.1155"
  },
  {
    "nombre": "PAPELERÍA EL VALLE",
    "desc": "Papelería, copias e impresiones. Col. El Valle, Puebla.",
    "img": "/alliados/papeleria-valle.png",
    "url": "https://www.google.com/maps/search/Papeleria+El+Valle+Puebla",
    "telefono": "",
    "lat": "19.1012",
    "lon": "-98.1162"
  },
  {
    "nombre": "BENY PIZZAS",
    "desc": "Pizzas, hamburguesas y hot dogs. Av. Cristóbal Colón, Xonacatepec.",
    "img": "/alliados/beny-pizzas.png",
    "url": "https://www.google.com/maps/search/Beny+Pizzas+Av+Cristobal+Colon+Xonacatepec+Puebla",
    "telefono": "",
    "lat": "19.0891",
    "lon": "-98.1055"
  },
  {
    "nombre": "ROSTICERÍA BERTHA",
    "desc": "Pollos rostizados. Col. Santa María Xonacatepec.",
    "img": "/alliados/rosticeria-bertha.png",
    "url": "https://www.google.com/maps/search/Rosticeria+Bertha+Xonacatepec+Puebla",
    "telefono": "",
    "lat": "19.0880",
    "lon": "-98.1025"
  },
  {
    "nombre": "ROSTICERÍA ARIANA",
    "desc": "Pollos al carbón. Col. Santa María Xonacatepec.",
    "img": "/alliados/rosticeria-ariana.png",
    "url": "https://www.google.com/maps/search/Rosticeria+Ariana+Xonacatepec+Puebla",
    "telefono": "",
    "lat": "19.0865",
    "lon": "-98.1048"
  },
  {
    "nombre": "TAQUERÍA LOS PINOS",
    "desc": "Tacos y tortas. Av. Xonacatepec esq. B. Juárez, San Miguel Xonacatepec.",
    "img": "/alliados/taqueria-pinos.png",
    "url": "https://www.google.com/maps/search/Taqueria+Los+Pinos+Av+Xonacatepec+San+Miguel+Xonacatepec+Puebla",
    "telefono": "",
    "lat": "19.0855",
    "lon": "-98.1070"
  },
  {
    "nombre": "POLLOS GUERRERO",
    "desc": "Pollos a la leña. Col. Guadalupe Xonacatepec.",
    "img": "/alliados/pollos-guerrero.png",
    "url": "https://www.google.com/maps/search/Pollos+Guerrero+Guadalupe+Xonacatepec+Puebla",
    "telefono": "",
    "lat": "19.0820",
    "lon": "-98.0998"
  },
  {
    "nombre": "PIZZAS REY DE REYES",
    "desc": "Pizzas a la leña. Col. Jardines de San José, Xonacatepec.",
    "img": "/alliados/rey-de-reyes.png",
    "url": "https://www.google.com/maps/search/Pizzas+Rey+de+Reyes+Jardines+San+Jose+Xonacatepec+Puebla",
    "telefono": "",
    "lat": "19.0843",
    "lon": "-98.0980"
  },
  {
    "nombre": "ROSTICERÍA BARRIO DEL CRISTO",
    "desc": "Pollos y comida para llevar. Calle Barrio del Cristo, Xonacatepec.",
    "img": "/alliados/rosticeria-cristo.png",
    "url": "https://www.google.com/maps/search/Rosticeria+Barrio+del+Cristo+Xonacatepec+Puebla",
    "telefono": "",
    "lat": "19.0834",
    "lon": "-98.1032"
  },
  {
    "nombre": "ROSTICERÍA EL COMPADRE",
    "desc": "Pollos rostizados y antojitos. Col. Guadalupe Xonacatepec.",
    "img": "/alliados/el-compadre.png",
    "url": "https://www.google.com/maps/search/Rosticeria+El+Compadre+Guadalupe+Xonacatepec+Puebla",
    "telefono": "",
    "lat": "19.0815",
    "lon": "-98.1010"
  },
  {
    "nombre": "TAQUERÍA RIVERA ANAYA",
    "desc": "Tacos, quesadillas y antojitos. Av. Manuel Rivera Anaya.",
    "img": "/alliados/taqueria-rivera.png",
    "url": "https://www.google.com/maps/search/Taqueria+Av+Manuel+Rivera+Anaya+Puebla",
    "telefono": "",
    "lat": "19.0998",
    "lon": "-98.1142"
  },
  {
    "nombre": "TORTAS Y JUGOS BOSQUES",
    "desc": "Tortas, licuados y jugos naturales. Bosques de San Sebastián.",
    "img": "/alliados/tortas-bosques.png",
    "url": "https://www.google.com/maps/search/Tortas+Jugos+Bosques+San+Sebastian+Puebla",
    "telefono": "",
    "lat": "19.0944",
    "lon": "-98.1076"
  },
  {
    "nombre": "COCINA ECONÓMICA AMALUCAN",
    "desc": "Comida casera del día. Zona Amalucan, Puebla.",
    "img": "/alliados/cocina-amalucan.png",
    "url": "https://www.google.com/maps/search/Cocina+Economica+Amalucan+Puebla",
    "telefono": "",
    "lat": "19.0985",
    "lon": "-98.1130"
  },
  {
    "nombre": "TORTILLERÍA LA ESPERANZA",
    "desc": "Tortillas frescas de maíz. Producción diaria. Xonacatepec.",
    "img": "/alliados/tortilleria.png",
    "url": "https://www.google.com/maps/search/Tortilleria+Xonacatepec+Puebla",
    "telefono": "",
    "lat": "19.0878",
    "lon": "-98.1015"
  },
  {
    "nombre": "PANADERÍA LA ESPERANZA",
    "desc": "Pan fresco de horno. Pan dulce y salado. Col. Xonacatepec.",
    "img": "/alliados/panaderia.png",
    "url": "https://www.google.com/maps/search/Panaderia+Xonacatepec+Puebla",
    "telefono": "",
    "lat": "19.0866",
    "lon": "-98.1028"
  },
  {
    "nombre": "CARNICERÍA XONACATEPEC",
    "desc": "Cortes frescos y embutidos. Col. Santa María Xonacatepec.",
    "img": "/alliados/carniceria.png",
    "url": "https://www.google.com/maps/search/Carniceria+Xonacatepec+Puebla",
    "telefono": "",
    "lat": "19.0870",
    "lon": "-98.1032"
  },
  {
    "nombre": "POLLERÍA BOSQUES",
    "desc": "Venta de pollo fresco. Zona Bosques de San Sebastián.",
    "img": "/alliados/polleria.png",
    "url": "https://www.google.com/maps/search/Polleria+Bosques+San+Sebastian+Puebla",
    "telefono": "",
    "lat": "19.0948",
    "lon": "-98.1082"
  },
  {
    "nombre": "FERRETERÍA SAN MIGUEL",
    "desc": "Materiales de construcción y herramientas. Col. San Miguel Xonacatepec.",
    "img": "/alliados/ferreteria-san-miguel.png",
    "url": "https://www.google.com/maps/search/Ferreteria+San+Miguel+Xonacatepec+Puebla",
    "telefono": "",
    "lat": "19.0858",
    "lon": "-98.1080"
  },
  {
    "nombre": "FERRETERÍA BOSQUES",
    "desc": "Ferretería general. Zona Bosques de San Sebastián.",
    "img": "/alliados/ferreteria-bosques.png",
    "url": "https://www.google.com/maps/search/Ferreteria+Bosques+San+Sebastian+Puebla",
    "telefono": "",
    "lat": "19.0948",
    "lon": "-98.1082"
  },
  {
    "nombre": "FERRETERÍA AMALUCAN",
    "desc": "Ferretería y materiales de construcción. Zona Amalucan.",
    "img": "/alliados/ferreteria-amalucan.png",
    "url": "https://www.google.com/maps/search/Ferreteria+Amalucan+Puebla",
    "telefono": "",
    "lat": "19.0980",
    "lon": "-98.1128"
  },
  {
    "nombre": "ESTÉTICA XONACATEPEC",
    "desc": "Cortes, peinados y tintes. Col. Santa María Xonacatepec.",
    "img": "/alliados/estetica-xona.png",
    "url": "https://www.google.com/maps/search/Estetica+Xonacatepec+Puebla",
    "telefono": "",
    "lat": "19.0862",
    "lon": "-98.1035"
  },
  {
    "nombre": "ESTÉTICA BOSQUES",
    "desc": "Salón de belleza dama y caballero. Bosques de San Sebastián.",
    "img": "/alliados/estetica-bosques.png",
    "url": "https://www.google.com/maps/search/Estetica+Bosques+San+Sebastian+Puebla",
    "telefono": "",
    "lat": "19.0942",
    "lon": "-98.1072"
  },
  {
    "nombre": "VETERINARIA BOSQUES",
    "desc": "Consultas y vacunas para mascotas. Bosques de San Sebastián.",
    "img": "/alliados/veterinaria.png",
    "url": "https://www.google.com/maps/search/Veterinaria+Bosques+San+Sebastian+Puebla",
    "telefono": "",
    "lat": "19.0938",
    "lon": "-98.1070"
  },
  {
    "nombre": "ÓPTICA XONACATEPEC",
    "desc": "Examen visual y lentes. Zona Xonacatepec / Bosques.",
    "img": "/alliados/optica.png",
    "url": "https://www.google.com/maps/search/Optica+Xonacatepec+Bosques+Puebla",
    "telefono": "",
    "lat": "19.0905",
    "lon": "-98.1048"
  },
  {
    "nombre": "TINTORERÍA BOSQUES",
    "desc": "Lavandería y tintorería. Bosques de San Sebastián.",
    "img": "/alliados/tintoreria.png",
    "url": "https://www.google.com/maps/search/Tintoreria+Bosques+San+Sebastian+Puebla",
    "telefono": "",
    "lat": "19.0932",
    "lon": "-98.1065"
  },
  {
    "nombre": "ZAPATERÍA BOSQUES",
    "desc": "Calzado para toda la familia. Bosques de San Sebastián.",
    "img": "/alliados/zapateria.png",
    "url": "https://www.google.com/maps/search/Zapateria+Bosques+San+Sebastian+Puebla",
    "telefono": "",
    "lat": "19.0936",
    "lon": "-98.1068"
  },
  {
    "nombre": "PLOMERO XONACATEPEC",
    "desc": "Servicio de plomería a domicilio. Zona Xonacatepec.",
    "img": "/alliados/plomero.png",
    "url": "https://www.google.com/maps/search/Plomero+Xonacatepec+Puebla",
    "telefono": "",
    "lat": "19.0875",
    "lon": "-98.1038"
  },
  {
    "nombre": "ELECTRICISTA BOSQUES",
    "desc": "Instalaciones eléctricas. Bosques de San Sebastián.",
    "img": "/alliados/electricista.png",
    "url": "https://www.google.com/maps/search/Electricista+Bosques+San+Sebastian+Puebla",
    "telefono": "",
    "lat": "19.0944",
    "lon": "-98.1076"
  },
  {
    "nombre": "CERRAJERÍA XONACATEPEC",
    "desc": "Duplicado de llaves y cerrajería 24 hrs. Xonacatepec.",
    "img": "/alliados/cerrajeria.png",
    "url": "https://www.google.com/maps/search/Cerrajeria+Xonacatepec+Puebla",
    "telefono": "",
    "lat": "19.0868",
    "lon": "-98.1040"
  },
  {
    "nombre": "TALLER DE BICICLETAS AMALUCAN",
    "desc": "Reparación y venta de bicicletas. Zona Amalucan.",
    "img": "/alliados/taller-bicicletas.png",
    "url": "https://www.google.com/maps/search/Taller+Bicicletas+Amalucan+Puebla",
    "telefono": "",
    "lat": "19.0985",
    "lon": "-98.1132"
  },
  {
    "nombre": "CENTRO DE COPIADO XONACATEPEC",
    "desc": "Copias, impresiones láser y color. Col. Xonacatepec.",
    "img": "/alliados/copiado.png",
    "url": "https://www.google.com/maps/search/Centro+Copiado+Xonacatepec+Puebla",
    "telefono": "",
    "lat": "19.0870",
    "lon": "-98.1035"
  },
  {
    "nombre": "INTERNET Y COMPUTACIÓN BOSQUES",
    "desc": "Café internet, impresiones y renta de equipo. Bosques.",
    "img": "/alliados/internet-bosques.png",
    "url": "https://www.google.com/maps/search/Internet+Computacion+Bosques+San+Sebastian+Puebla",
    "telefono": "",
    "lat": "19.0940",
    "lon": "-98.1073"
  },
  {
    "nombre": "GIMNASIO FITNESS BOSQUES",
    "desc": "Gimnasio con equipo completo. Zona Bosques de San Sebastián.",
    "img": "/alliados/gimnasio.png",
    "url": "https://www.google.com/maps/search/Gimnasio+Fitness+Bosques+San+Sebastian+Puebla",
    "telefono": "",
    "lat": "19.0935",
    "lon": "-98.1068"
  },
  {
    "nombre": "MATERIALES LA CONSTRUCCIÓN AMALUCAN",
    "desc": "Venta de tabique, grava, cemento y más. Zona Amalucan.",
    "img": "/alliados/materiales.png",
    "url": "https://www.google.com/maps/search/Materiales+Construccion+Amalucan+Puebla",
    "telefono": "",
    "lat": "19.0978",
    "lon": "-98.1122"
  },
  {
    "nombre": "TLAPALERÍA XONACATEPEC",
    "desc": "Pinturas, barnices y materiales para construcción. Xonacatepec.",
    "img": "/alliados/tlapaleria.png",
    "url": "https://www.google.com/maps/search/Tlapaleria+Xonacatepec+Puebla",
    "telefono": "",
    "lat": "19.0876",
    "lon": "-98.1036"
  },
  {
    "nombre": "FLETES Y MUDANZAS BOSQUES",
    "desc": "Servicio de fletes y mudanzas. Zona Bosques / Xonacatepec.",
    "img": "/alliados/fletes.png",
    "url": "https://www.google.com/maps/search/Fletes+Mudanzas+Bosques+San+Sebastian+Puebla",
    "telefono": "",
    "lat": "19.0930",
    "lon": "-98.1060"
  },
  {
    "nombre": "SERVICIO DE GRÚAS XONACATEPEC",
    "desc": "Grúas para vehículos. Servicio 24 hrs. Zona Xonacatepec / Amalucan.",
    "img": "/alliados/gruas.png",
    "url": "https://www.google.com/maps/search/Gruas+Xonacatepec+Amalucan+Puebla",
    "telefono": "",
    "lat": "19.0895",
    "lon": "-98.1062"
  },
  {
    "nombre": "FUMIGACIONES BOSQUES",
    "desc": "Control de plagas y fumigación residencial. Bosques / Xonacatepec.",
    "img": "/alliados/fumigaciones.png",
    "url": "https://www.google.com/maps/search/Fumigaciones+Bosques+San+Sebastian+Puebla",
    "telefono": "",
    "lat": "19.0938",
    "lon": "-98.1072"
  },
  {
    "nombre": "TAPICERÍA AMALUCAN",
    "desc": "Tapizado de muebles y automóviles. Zona Amalucan.",
    "img": "/alliados/tapiceria.png",
    "url": "https://www.google.com/maps/search/Tapiceria+Amalucan+Puebla",
    "telefono": "",
    "lat": "19.0982",
    "lon": "-98.1125"
  },
  {
    "nombre": "HERRERÍA Y SOLDADURA XONACATEPEC",
    "desc": "Fabricación de rejas, puertas y estructuras metálicas. Xonacatepec.",
    "img": "/alliados/herreria.png",
    "url": "https://www.google.com/maps/search/Herreria+Soldadura+Xonacatepec+Puebla",
    "telefono": "",
    "lat": "19.0873",
    "lon": "-98.1042"
  },
  {
    "nombre": "JOYERÍA BOSQUES",
    "desc": "Venta y reparación de joyas. Zona Bosques de San Sebastián.",
    "img": "/alliados/joyeria.png",
    "url": "https://www.google.com/maps/search/Joyeria+Bosques+San+Sebastian+Puebla",
    "telefono": "",
    "lat": "19.0936",
    "lon": "-98.1070"
  },
  {
    "nombre": "ROPA Y MODA EL VALLE",
    "desc": "Venta de ropa para dama, caballero y niños. Col. El Valle.",
    "img": "/alliados/ropa-valle.png",
    "url": "https://www.google.com/maps/search/Ropa+El+Valle+Puebla",
    "telefono": "",
    "lat": "19.1008",
    "lon": "-98.1155"
  },
  {
    "nombre": "TIENDA DE CELULARES BOSQUES",
    "desc": "Venta y reparación de celulares y accesorios. Bosques.",
    "img": "/alliados/celulares.png",
    "url": "https://www.google.com/maps/search/Tienda+Celulares+Bosques+San+Sebastian+Puebla",
    "telefono": "",
    "lat": "19.0940",
    "lon": "-98.1074"
  }
]
