[
{
"nombre": "MANDADITOS XONACATEPEC",
"desc": "Servicio de paquetería local",
"img": "/alliados/1771832573512.png",
"url": "https://www.facebook.com/share/182Fm2eKF5/",
"lat": "19.0872",
"lon": "-98.1039"
},
{
"nombre": "Tortillería La Tradicional",
"desc": "Tortillas hechas a mano todos los días",
"img": "/alliados/local1.png",
"url": "https://facebook.com",
"lat": "19.0880",
"lon": "-98.1045"
},
{
"nombre": "Taquería El Compadre",
"desc": "Tacos al pastor y árabes",
"img": "/alliados/local2.png",
"url": "https://facebook.com",
"lat": "19.0867",
"lon": "-98.1028"
},
{
"nombre": "Farmacia Xonacatepec",
"desc": "Medicamentos y productos de salud",
"img": "/alliados/local3.png",
"url": "https://facebook.com",
"lat": "19.0879",
"lon": "-98.1019"
},
{
"nombre": "Panadería La Espiga",
"desc": "Pan dulce recién horneado",
"img": "/alliados/local4.png",
"url": "https://facebook.com",
"lat": "19.0884",
"lon": "-98.1030"
},
{
"nombre": "Papelería Escolar Lupita",
"desc": "Útiles escolares y copias",
"img": "/alliados/local5.png",
"url": "https://facebook.com",
"lat": "19.0869",
"lon": "-98.1042"
},
{
"nombre": "Pollería Don Chuy",
"desc": "Venta de pollo fresco",
"img": "/alliados/local6.png",
"url": "https://facebook.com",
"lat": "19.0875",
"lon": "-98.1051"
},
{
"nombre": "Refaccionaria El Pistón",
"desc": "Refacciones automotrices",
"img": "/alliados/local7.png",
"url": "https://facebook.com",
"lat": "19.0890",
"lon": "-98.1037"
},
{
"nombre": "Tienda La Esquina",
"desc": "Abarrotes y productos básicos",
"img": "/alliados/local8.png",
"url": "https://facebook.com",
"lat": "19.0882",
"lon": "-98.1021"
},
{
"nombre": "Barbería El Estilo",
"desc": "Cortes modernos y clásicos",
"img": "/alliados/local9.png",
"url": "https://facebook.com",
"lat": "19.0871",
"lon": "-98.1015"
},
{
"nombre": "Ferretería San José",
"desc": "Herramientas y materiales de construcción",
"img": "/alliados/local10.png",
"url": "https://facebook.com",
"lat": "19.0887",
"lon": "-98.1048"
},
{
"nombre": "Ciber XonaNet",
"desc": "Internet, impresiones y escaneo",
"img": "/alliados/local11.png",
"url": "https://facebook.com",
"lat": "19.0865",
"lon": "-98.1034"
},
{
"nombre": "Lonchería Doña Mari",
"desc": "Antojitos y comida casera",
"img": "/alliados/local12.png",
"url": "https://facebook.com",
"lat": "19.0878",
"lon": "-98.1026"
},
{
"nombre": "Mini Super Hernández",
"desc": "Abarrotes y bebidas",
"img": "/alliados/local13.png",
"url": "https://facebook.com",
"lat": "19.0889",
"lon": "-98.1018"
},
{
"nombre": "Taller Mecánico El Rayo",
"desc": "Reparación de autos y motos",
"img": "/alliados/local14.png",
"url": "https://facebook.com",
"lat": "19.0868",
"lon": "-98.1054"
},
{
"nombre": "Jugos y Licuados Vida",
"desc": "Bebidas naturales y saludables",
"img": "/alliados/local15.png",
"url": "https://facebook.com",
"lat": "19.0873",
"lon": "-98.1023"
},
{
"nombre": "Estética Bella Imagen",
"desc": "Cortes, tintes y maquillaje",
"img": "/alliados/local16.png",
"url": "https://facebook.com",
"lat": "19.0881",
"lon": "-98.1036"
},
{
"nombre": "Pizzería Don Luigi",
"desc": "Pizzas artesanales",
"img": "/alliados/local17.png",
"url": "https://facebook.com",
"lat": "19.0892",
"lon": "-98.1029"
},
{
"nombre": "Lavandería Burbuja",
"desc": "Servicio de lavado y secado",
"img": "/alliados/local18.png",
"url": "https://facebook.com",
"lat": "19.0876",
"lon": "-98.1049"
},
{
"nombre": "Cremería La Vaquita",
"desc": "Quesos, crema y lácteos",
"img": "/alliados/local19.png",
"url": "https://facebook.com",
"lat": "19.0886",
"lon": "-98.1024"
}
]